[
  {
    "ip": "::1",
    "location": {
      "country": "Unknown",
      "region": "Unknown",
      "city": "Unknown"
    },
    "browser": {
      "name": "Chrome",
      "version": "126.0.0.0"
    },
    "os": {
      "name": "Chrome OS",
      "version": "14541.0.0"
    },
    "device": {
      "vendor": "Unknown",
      "model": "Unknown",
      "type": "Unknown"
    },
    "visitedAt": "2025-02-18T12:24:37.695Z"
  },
  {
    "ip": "::1",
    "location": {
      "country": "Unknown",
      "region": "Unknown",
      "city": "Unknown"
    },
    "browser": {
      "name": "Chrome",
      "version": "126.0.0.0"
    },
    "os": {
      "name": "Chrome OS",
      "version": "14541.0.0"
    },
    "device": {
      "vendor": "Unknown",
      "model": "Unknown",
      "type": "Unknown"
    },
    "visitedAt": "2025-02-18T12:26:02.295Z"
  },
  {
    "ip": "::1",
    "location": {
      "country": "Unknown",
      "region": "Unknown",
      "city": "Unknown"
    },
    "browser": {
      "name": "Chrome",
      "version": "126.0.0.0"
    },
    "os": {
      "name": "Chrome OS",
      "version": "14541.0.0"
    },
    "device": {
      "vendor": "Unknown",
      "model": "Unknown",
      "type": "Unknown"
    },
    "visitedAt": "2025-02-18T12:26:57.331Z"
  },
  {
    "ip": "34.83.203.92",
    "location": {
      "country": "United States",
      "region": "Oregon",
      "city": "The Dalles"
    },
    "browser": {
      "name": "Unknown",
      "version": "Unknown"
    },
    "os": {
      "name": "Unknown",
      "version": "Unknown"
    },
    "device": {
      "vendor": "Unknown",
      "model": "Unknown",
      "type": "Unknown"
    },
    "visitedAt": "2025-02-18T12:33:21.062Z"
  },
  {
    "ip": "34.83.203.92",
    "location": {
      "country": "United States",
      "region": "Oregon",
      "city": "The Dalles"
    },
    "browser": {
      "name": "Unknown",
      "version": "Unknown"
    },
    "os": {
      "name": "Unknown",
      "version": "Unknown"
    },
    "device": {
      "vendor": "Unknown",
      "model": "Unknown",
      "type": "Unknown"
    },
    "visitedAt": "2025-02-18T12:33:23.639Z"
  },
  {
    "ip": "182.2.142.58",
    "location": {
      "country": "Indonesia",
      "region": "Jakarta",
      "city": "Jakarta"
    },
    "browser": {
      "name": "Mobile Chrome",
      "version": "132.0.0.0"
    },
    "os": {
      "name": "Android",
      "version": "10"
    },
    "device": {
      "vendor": "Unknown",
      "model": "K",
      "type": "mobile"
    },
    "visitedAt": "2025-02-18T12:33:27.303Z"
  },
  {
    "ip": "182.2.142.58",
    "location": {
      "country": "Indonesia",
      "region": "Jakarta",
      "city": "Jakarta"
    },
    "browser": {
      "name": "Mobile Chrome",
      "version": "132.0.0.0"
    },
    "os": {
      "name": "Android",
      "version": "10"
    },
    "device": {
      "vendor": "Unknown",
      "model": "K",
      "type": "mobile"
    },
    "visitedAt": "2025-02-18T12:35:05.297Z"
  },
  {
    "ip": "182.2.142.58",
    "location": {
      "country": "Indonesia",
      "region": "Jakarta",
      "city": "Jakarta"
    },
    "browser": {
      "name": "Mobile Chrome",
      "version": "132.0.0.0"
    },
    "os": {
      "name": "Android",
      "version": "10"
    },
    "device": {
      "vendor": "Unknown",
      "model": "K",
      "type": "mobile"
    },
    "visitedAt": "2025-02-18T12:37:50.997Z"
  },
  {
    "ip": "182.2.142.58",
    "location": {
      "country": "Indonesia",
      "region": "Jakarta",
      "city": "Jakarta"
    },
    "browser": {
      "name": "Mobile Chrome",
      "version": "132.0.0.0"
    },
    "os": {
      "name": "Android",
      "version": "10"
    },
    "device": {
      "vendor": "Unknown",
      "model": "K",
      "type": "mobile"
    },
    "visitedAt": "2025-02-18T12:38:03.586Z"
  },
  {
    "ip": "182.2.142.58",
    "location": {
      "country": "Indonesia",
      "region": "Jakarta",
      "city": "Jakarta"
    },
    "browser": {
      "name": "Chrome",
      "version": "126.0.0.0"
    },
    "os": {
      "name": "Chrome OS",
      "version": "14541.0.0"
    },
    "device": {
      "vendor": "Unknown",
      "model": "Unknown",
      "type": "Unknown"
    },
    "visitedAt": "2025-02-18T12:40:53.352Z"
  },
  {
    "ip": "182.2.142.58",
    "location": {
      "country": "Indonesia",
      "region": "Jakarta",
      "city": "Jakarta"
    },
    "browser": {
      "name": "Chrome",
      "version": "126.0.0.0"
    },
    "os": {
      "name": "Chrome OS",
      "version": "14541.0.0"
    },
    "device": {
      "vendor": "Unknown",
      "model": "Unknown",
      "type": "Unknown"
    },
    "visitedAt": "2025-02-18T12:41:10.056Z"
  },
  {
    "ip": "182.2.142.58",
    "location": {
      "country": "Indonesia",
      "region": "Jakarta",
      "city": "Jakarta"
    },
    "browser": {
      "name": "Unknown",
      "version": "Unknown"
    },
    "os": {
      "name": "Unknown",
      "version": "Unknown"
    },
    "device": {
      "vendor": "Unknown",
      "model": "Unknown",
      "type": "Unknown"
    },
    "visitedAt": "2025-02-18T12:52:56.793Z"
  },
  {
    "ip": "::1",
    "location": {
      "country": "Unknown",
      "region": "Unknown",
      "city": "Unknown"
    },
    "browser": {
      "name": "Chrome",
      "version": "126.0.0.0"
    },
    "os": {
      "name": "Chrome OS",
      "version": "14541.0.0"
    },
    "device": {
      "vendor": "Unknown",
      "model": "Unknown",
      "type": "Unknown"
    },
    "visitedAt": "2025-02-18T14:24:09.969Z"
  },
  {
    "ip": "::1",
    "location": {
      "country": "Unknown",
      "region": "Unknown",
      "city": "Unknown"
    },
    "browser": {
      "name": "Chrome",
      "version": "126.0.0.0"
    },
    "os": {
      "name": "Chrome OS",
      "version": "14541.0.0"
    },
    "device": {
      "vendor": "Unknown",
      "model": "Unknown",
      "type": "Unknown"
    },
    "visitedAt": "2025-02-18T14:25:43.471Z"
  },
  {
    "ip": "::1",
    "location": {
      "country": "Unknown",
      "region": "Unknown",
      "city": "Unknown"
    },
    "browser": {
      "name": "Chrome",
      "version": "126.0.0.0"
    },
    "os": {
      "name": "Chrome OS",
      "version": "14541.0.0"
    },
    "device": {
      "vendor": "Unknown",
      "model": "Unknown",
      "type": "Unknown"
    },
    "visitedAt": "2025-02-18T14:26:49.743Z"
  },
  {
    "ip": "::1",
    "location": {
      "country": "Unknown",
      "region": "Unknown",
      "city": "Unknown"
    },
    "browser": {
      "name": "Chrome",
      "version": "126.0.0.0"
    },
    "os": {
      "name": "Chrome OS",
      "version": "14541.0.0"
    },
    "device": {
      "vendor": "Unknown",
      "model": "Unknown",
      "type": "Unknown"
    },
    "visitedAt": "2025-02-18T14:27:35.762Z"
  },
  {
    "ip": "::1",
    "location": {
      "country": "Unknown",
      "region": "Unknown",
      "city": "Unknown"
    },
    "browser": {
      "name": "Chrome",
      "version": "126.0.0.0"
    },
    "os": {
      "name": "Chrome OS",
      "version": "14541.0.0"
    },
    "device": {
      "vendor": "Unknown",
      "model": "Unknown",
      "type": "Unknown"
    },
    "visitedAt": "2025-02-18T14:30:27.564Z"
  },
  {
    "ip": "::1",
    "location": {
      "country": "Unknown",
      "region": "Unknown",
      "city": "Unknown"
    },
    "browser": {
      "name": "Chrome",
      "version": "126.0.0.0"
    },
    "os": {
      "name": "Chrome OS",
      "version": "14541.0.0"
    },
    "device": {
      "vendor": "Unknown",
      "model": "Unknown",
      "type": "Unknown"
    },
    "visitedAt": "2025-02-18T14:30:56.367Z"
  },
  {
    "ip": "::1",
    "location": {
      "country": "Unknown",
      "region": "Unknown",
      "city": "Unknown"
    },
    "browser": {
      "name": "Chrome",
      "version": "126.0.0.0"
    },
    "os": {
      "name": "Chrome OS",
      "version": "14541.0.0"
    },
    "device": {
      "vendor": "Unknown",
      "model": "Unknown",
      "type": "Unknown"
    },
    "visitedAt": "2025-02-18T14:31:07.565Z"
  },
  {
    "ip": "::1",
    "location": {
      "country": "Unknown",
      "region": "Unknown",
      "city": "Unknown"
    },
    "browser": {
      "name": "Chrome",
      "version": "126.0.0.0"
    },
    "os": {
      "name": "Chrome OS",
      "version": "14541.0.0"
    },
    "device": {
      "vendor": "Unknown",
      "model": "Unknown",
      "type": "Unknown"
    },
    "visitedAt": "2025-02-18T14:34:58.427Z"
  },
  {
    "ip": "::1",
    "location": {
      "country": "Unknown",
      "region": "Unknown",
      "city": "Unknown"
    },
    "browser": {
      "name": "Chrome",
      "version": "126.0.0.0"
    },
    "os": {
      "name": "Chrome OS",
      "version": "14541.0.0"
    },
    "device": {
      "vendor": "Unknown",
      "model": "Unknown",
      "type": "Unknown"
    },
    "visitedAt": "2025-02-18T14:39:32.983Z"
  },
  {
    "ip": "::1",
    "location": {
      "country": "Unknown",
      "region": "Unknown",
      "city": "Unknown"
    },
    "browser": {
      "name": "Chrome",
      "version": "126.0.0.0"
    },
    "os": {
      "name": "Chrome OS",
      "version": "14541.0.0"
    },
    "device": {
      "vendor": "Unknown",
      "model": "Unknown",
      "type": "Unknown"
    },
    "visitedAt": "2025-02-18T14:40:46.756Z"
  },
  {
    "ip": "::1",
    "location": {
      "country": "Unknown",
      "region": "Unknown",
      "city": "Unknown"
    },
    "browser": {
      "name": "Chrome",
      "version": "126.0.0.0"
    },
    "os": {
      "name": "Chrome OS",
      "version": "14541.0.0"
    },
    "device": {
      "vendor": "Unknown",
      "model": "Unknown",
      "type": "Unknown"
    },
    "visitedAt": "2025-02-18T14:42:43.336Z"
  },
  {
    "ip": "::1",
    "location": {
      "country": "Unknown",
      "region": "Unknown",
      "city": "Unknown"
    },
    "browser": {
      "name": "Chrome",
      "version": "126.0.0.0"
    },
    "os": {
      "name": "Chrome OS",
      "version": "14541.0.0"
    },
    "device": {
      "vendor": "Unknown",
      "model": "Unknown",
      "type": "Unknown"
    },
    "visitedAt": "2025-02-18T14:44:42.024Z"
  },
  {
    "ip": "::1",
    "location": {
      "country": "Unknown",
      "region": "Unknown",
      "city": "Unknown"
    },
    "browser": {
      "name": "Chrome",
      "version": "126.0.0.0"
    },
    "os": {
      "name": "Chrome OS",
      "version": "14541.0.0"
    },
    "device": {
      "vendor": "Unknown",
      "model": "Unknown",
      "type": "Unknown"
    },
    "visitedAt": "2025-02-18T14:44:45.109Z"
  },
  {
    "ip": "::1",
    "location": {
      "country": "Unknown",
      "region": "Unknown",
      "city": "Unknown"
    },
    "browser": {
      "name": "Chrome",
      "version": "126.0.0.0"
    },
    "os": {
      "name": "Chrome OS",
      "version": "14541.0.0"
    },
    "device": {
      "vendor": "Unknown",
      "model": "Unknown",
      "type": "Unknown"
    },
    "visitedAt": "2025-02-18T14:44:47.322Z"
  },
  {
    "ip": "::1",
    "location": {
      "country": "Unknown",
      "region": "Unknown",
      "city": "Unknown"
    },
    "browser": {
      "name": "Chrome",
      "version": "126.0.0.0"
    },
    "os": {
      "name": "Chrome OS",
      "version": "14541.0.0"
    },
    "device": {
      "vendor": "Unknown",
      "model": "Unknown",
      "type": "Unknown"
    },
    "visitedAt": "2025-02-18T14:44:49.587Z"
  },
  {
    "ip": "::1",
    "location": {
      "country": "Unknown",
      "region": "Unknown",
      "city": "Unknown"
    },
    "browser": {
      "name": "Chrome",
      "version": "126.0.0.0"
    },
    "os": {
      "name": "Chrome OS",
      "version": "14541.0.0"
    },
    "device": {
      "vendor": "Unknown",
      "model": "Unknown",
      "type": "Unknown"
    },
    "visitedAt": "2025-02-18T14:48:45.104Z"
  },
  {
    "ip": "::1",
    "location": {
      "country": "Unknown",
      "region": "Unknown",
      "city": "Unknown"
    },
    "browser": {
      "name": "Chrome",
      "version": "126.0.0.0"
    },
    "os": {
      "name": "Chrome OS",
      "version": "14541.0.0"
    },
    "device": {
      "vendor": "Unknown",
      "model": "Unknown",
      "type": "Unknown"
    },
    "visitedAt": "2025-02-18T14:50:05.420Z"
  },
  {
    "ip": "::1",
    "location": {
      "country": "Unknown",
      "region": "Unknown",
      "city": "Unknown"
    },
    "browser": {
      "name": "Chrome",
      "version": "126.0.0.0"
    },
    "os": {
      "name": "Chrome OS",
      "version": "14541.0.0"
    },
    "device": {
      "vendor": "Unknown",
      "model": "Unknown",
      "type": "Unknown"
    },
    "visitedAt": "2025-02-18T14:50:33.978Z"
  },
  {
    "ip": "::1",
    "location": {
      "country": "Unknown",
      "region": "Unknown",
      "city": "Unknown"
    },
    "browser": {
      "name": "Chrome",
      "version": "126.0.0.0"
    },
    "os": {
      "name": "Chrome OS",
      "version": "14541.0.0"
    },
    "device": {
      "vendor": "Unknown",
      "model": "Unknown",
      "type": "Unknown"
    },
    "visitedAt": "2025-02-18T14:50:35.467Z"
  },
  {
    "ip": "::1",
    "location": {
      "country": "Unknown",
      "region": "Unknown",
      "city": "Unknown"
    },
    "browser": {
      "name": "Chrome",
      "version": "126.0.0.0"
    },
    "os": {
      "name": "Chrome OS",
      "version": "14541.0.0"
    },
    "device": {
      "vendor": "Unknown",
      "model": "Unknown",
      "type": "Unknown"
    },
    "visitedAt": "2025-02-18T14:56:38.415Z"
  },
  {
    "ip": "::1",
    "location": {
      "country": "Unknown",
      "region": "Unknown",
      "city": "Unknown"
    },
    "browser": {
      "name": "Chrome",
      "version": "126.0.0.0"
    },
    "os": {
      "name": "Chrome OS",
      "version": "14541.0.0"
    },
    "device": {
      "vendor": "Unknown",
      "model": "Unknown",
      "type": "Unknown"
    },
    "visitedAt": "2025-02-18T14:59:17.323Z"
  },
  {
    "ip": "::1",
    "location": {
      "country": "Unknown",
      "region": "Unknown",
      "city": "Unknown"
    },
    "browser": {
      "name": "Chrome",
      "version": "126.0.0.0"
    },
    "os": {
      "name": "Chrome OS",
      "version": "14541.0.0"
    },
    "device": {
      "vendor": "Unknown",
      "model": "Unknown",
      "type": "Unknown"
    },
    "visitedAt": "2025-02-18T14:59:18.288Z"
  },
  {
    "ip": "::1",
    "location": {
      "country": "Unknown",
      "region": "Unknown",
      "city": "Unknown"
    },
    "browser": {
      "name": "Chrome",
      "version": "126.0.0.0"
    },
    "os": {
      "name": "Chrome OS",
      "version": "14541.0.0"
    },
    "device": {
      "vendor": "Unknown",
      "model": "Unknown",
      "type": "Unknown"
    },
    "visitedAt": "2025-02-18T14:59:22.393Z"
  },
  {
    "ip": "::1",
    "location": {
      "country": "Unknown",
      "region": "Unknown",
      "city": "Unknown"
    },
    "browser": {
      "name": "Chrome",
      "version": "126.0.0.0"
    },
    "os": {
      "name": "Chrome OS",
      "version": "14541.0.0"
    },
    "device": {
      "vendor": "Unknown",
      "model": "Unknown",
      "type": "Unknown"
    },
    "visitedAt": "2025-02-18T15:02:19.285Z"
  },
  {
    "ip": "::1",
    "location": {
      "country": "Unknown",
      "region": "Unknown",
      "city": "Unknown"
    },
    "browser": {
      "name": "Chrome",
      "version": "126.0.0.0"
    },
    "os": {
      "name": "Chrome OS",
      "version": "14541.0.0"
    },
    "device": {
      "vendor": "Unknown",
      "model": "Unknown",
      "type": "Unknown"
    },
    "visitedAt": "2025-02-18T15:05:51.424Z"
  },
  {
    "ip": "::1",
    "location": {
      "country": "Unknown",
      "region": "Unknown",
      "city": "Unknown"
    },
    "browser": {
      "name": "Chrome",
      "version": "126.0.0.0"
    },
    "os": {
      "name": "Chrome OS",
      "version": "14541.0.0"
    },
    "device": {
      "vendor": "Unknown",
      "model": "Unknown",
      "type": "Unknown"
    },
    "visitedAt": "2025-02-18T15:05:53.906Z"
  },
  {
    "ip": "::1",
    "location": {
      "country": "Unknown",
      "region": "Unknown",
      "city": "Unknown"
    },
    "browser": {
      "name": "Chrome",
      "version": "126.0.0.0"
    },
    "os": {
      "name": "Chrome OS",
      "version": "14541.0.0"
    },
    "device": {
      "vendor": "Unknown",
      "model": "Unknown",
      "type": "Unknown"
    },
    "visitedAt": "2025-02-18T15:05:56.543Z"
  },
  {
    "ip": "::1",
    "location": {
      "country": "Unknown",
      "region": "Unknown",
      "city": "Unknown"
    },
    "browser": {
      "name": "Chrome",
      "version": "126.0.0.0"
    },
    "os": {
      "name": "Chrome OS",
      "version": "14541.0.0"
    },
    "device": {
      "vendor": "Unknown",
      "model": "Unknown",
      "type": "Unknown"
    },
    "visitedAt": "2025-02-18T15:05:58.632Z"
  },
  {
    "ip": "::1",
    "location": {
      "country": "Unknown",
      "region": "Unknown",
      "city": "Unknown"
    },
    "browser": {
      "name": "Chrome",
      "version": "126.0.0.0"
    },
    "os": {
      "name": "Chrome OS",
      "version": "14541.0.0"
    },
    "device": {
      "vendor": "Unknown",
      "model": "Unknown",
      "type": "Unknown"
    },
    "visitedAt": "2025-02-18T15:08:11.433Z"
  },
  {
    "ip": "::1",
    "location": {
      "country": "Unknown",
      "region": "Unknown",
      "city": "Unknown"
    },
    "browser": {
      "name": "Chrome",
      "version": "126.0.0.0"
    },
    "os": {
      "name": "Chrome OS",
      "version": "14541.0.0"
    },
    "device": {
      "vendor": "Unknown",
      "model": "Unknown",
      "type": "Unknown"
    },
    "visitedAt": "2025-02-18T15:08:34.845Z"
  },
  {
    "ip": "::1",
    "location": {
      "country": "Unknown",
      "region": "Unknown",
      "city": "Unknown"
    },
    "browser": {
      "name": "Chrome",
      "version": "126.0.0.0"
    },
    "os": {
      "name": "Chrome OS",
      "version": "14541.0.0"
    },
    "device": {
      "vendor": "Unknown",
      "model": "Unknown",
      "type": "Unknown"
    },
    "visitedAt": "2025-02-18T15:08:36.754Z"
  },
  {
    "ip": "::1",
    "location": {
      "country": "Unknown",
      "region": "Unknown",
      "city": "Unknown"
    },
    "browser": {
      "name": "Chrome",
      "version": "126.0.0.0"
    },
    "os": {
      "name": "Chrome OS",
      "version": "14541.0.0"
    },
    "device": {
      "vendor": "Unknown",
      "model": "Unknown",
      "type": "Unknown"
    },
    "visitedAt": "2025-02-18T15:08:38.376Z"
  },
  {
    "ip": "::1",
    "location": {
      "country": "Unknown",
      "region": "Unknown",
      "city": "Unknown"
    },
    "browser": {
      "name": "Chrome",
      "version": "126.0.0.0"
    },
    "os": {
      "name": "Chrome OS",
      "version": "14541.0.0"
    },
    "device": {
      "vendor": "Unknown",
      "model": "Unknown",
      "type": "Unknown"
    },
    "visitedAt": "2025-02-18T15:09:01.304Z"
  },
  {
    "ip": "::1",
    "location": {
      "country": "Unknown",
      "region": "Unknown",
      "city": "Unknown"
    },
    "browser": {
      "name": "Chrome",
      "version": "126.0.0.0"
    },
    "os": {
      "name": "Chrome OS",
      "version": "14541.0.0"
    },
    "device": {
      "vendor": "Unknown",
      "model": "Unknown",
      "type": "Unknown"
    },
    "visitedAt": "2025-02-18T15:11:15.792Z"
  },
  {
    "ip": "::1",
    "location": {
      "country": "Unknown",
      "region": "Unknown",
      "city": "Unknown"
    },
    "browser": {
      "name": "Chrome",
      "version": "126.0.0.0"
    },
    "os": {
      "name": "Chrome OS",
      "version": "14541.0.0"
    },
    "device": {
      "vendor": "Unknown",
      "model": "Unknown",
      "type": "Unknown"
    },
    "visitedAt": "2025-02-18T15:12:11.791Z"
  },
  {
    "ip": "::1",
    "location": {
      "country": "Unknown",
      "region": "Unknown",
      "city": "Unknown"
    },
    "browser": {
      "name": "Chrome",
      "version": "126.0.0.0"
    },
    "os": {
      "name": "Chrome OS",
      "version": "14541.0.0"
    },
    "device": {
      "vendor": "Unknown",
      "model": "Unknown",
      "type": "Unknown"
    },
    "visitedAt": "2025-02-18T15:12:12.949Z"
  },
  {
    "ip": "::1",
    "location": {
      "country": "Unknown",
      "region": "Unknown",
      "city": "Unknown"
    },
    "browser": {
      "name": "Chrome",
      "version": "126.0.0.0"
    },
    "os": {
      "name": "Chrome OS",
      "version": "14541.0.0"
    },
    "device": {
      "vendor": "Unknown",
      "model": "Unknown",
      "type": "Unknown"
    },
    "visitedAt": "2025-02-18T15:12:24.762Z"
  },
  {
    "ip": "::1",
    "location": {
      "country": "Unknown",
      "region": "Unknown",
      "city": "Unknown"
    },
    "browser": {
      "name": "Chrome",
      "version": "126.0.0.0"
    },
    "os": {
      "name": "Chrome OS",
      "version": "14541.0.0"
    },
    "device": {
      "vendor": "Unknown",
      "model": "Unknown",
      "type": "Unknown"
    },
    "visitedAt": "2025-02-18T15:15:58.586Z"
  },
  {
    "ip": "::1",
    "location": {
      "country": "Unknown",
      "region": "Unknown",
      "city": "Unknown"
    },
    "browser": {
      "name": "Chrome",
      "version": "126.0.0.0"
    },
    "os": {
      "name": "Chrome OS",
      "version": "14541.0.0"
    },
    "device": {
      "vendor": "Unknown",
      "model": "Unknown",
      "type": "Unknown"
    },
    "visitedAt": "2025-02-18T15:17:33.915Z"
  },
  {
    "ip": "::1",
    "location": {
      "country": "Unknown",
      "region": "Unknown",
      "city": "Unknown"
    },
    "browser": {
      "name": "Chrome",
      "version": "126.0.0.0"
    },
    "os": {
      "name": "Chrome OS",
      "version": "14541.0.0"
    },
    "device": {
      "vendor": "Unknown",
      "model": "Unknown",
      "type": "Unknown"
    },
    "visitedAt": "2025-02-18T15:19:04.085Z"
  },
  {
    "ip": "::1",
    "location": {
      "country": "Unknown",
      "region": "Unknown",
      "city": "Unknown"
    },
    "browser": {
      "name": "Chrome",
      "version": "126.0.0.0"
    },
    "os": {
      "name": "Chrome OS",
      "version": "14541.0.0"
    },
    "device": {
      "vendor": "Unknown",
      "model": "Unknown",
      "type": "Unknown"
    },
    "visitedAt": "2025-02-18T15:19:20.919Z"
  },
  {
    "ip": "::1",
    "location": {
      "country": "Unknown",
      "region": "Unknown",
      "city": "Unknown"
    },
    "browser": {
      "name": "Chrome",
      "version": "126.0.0.0"
    },
    "os": {
      "name": "Chrome OS",
      "version": "14541.0.0"
    },
    "device": {
      "vendor": "Unknown",
      "model": "Unknown",
      "type": "Unknown"
    },
    "visitedAt": "2025-02-18T15:19:23.128Z"
  },
  {
    "ip": "::ffff:100.115.92.25",
    "location": {
      "country": "Unknown",
      "region": "Unknown",
      "city": "Unknown"
    },
    "browser": {
      "name": "Chrome",
      "version": "126.0.0.0"
    },
    "os": {
      "name": "Chrome OS",
      "version": "14541.0.0"
    },
    "device": {
      "vendor": "Unknown",
      "model": "Unknown",
      "type": "Unknown"
    },
    "visitedAt": "2025-02-18T17:43:34.743Z"
  },
  {
    "ip": "::1",
    "location": {
      "country": "Unknown",
      "region": "Unknown",
      "city": "Unknown"
    },
    "browser": {
      "name": "Chrome",
      "version": "126.0.0.0"
    },
    "os": {
      "name": "Chrome OS",
      "version": "14541.0.0"
    },
    "device": {
      "vendor": "Unknown",
      "model": "Unknown",
      "type": "Unknown"
    },
    "visitedAt": "2025-02-18T17:43:44.323Z"
  },
  {
    "ip": "::1",
    "location": {
      "country": "Unknown",
      "region": "Unknown",
      "city": "Unknown"
    },
    "browser": {
      "name": "Chrome",
      "version": "126.0.0.0"
    },
    "os": {
      "name": "Chrome OS",
      "version": "14541.0.0"
    },
    "device": {
      "vendor": "Unknown",
      "model": "Unknown",
      "type": "Unknown"
    },
    "visitedAt": "2025-02-18T17:44:46.456Z"
  },
  {
    "ip": "::1",
    "location": {
      "country": "Unknown",
      "region": "Unknown",
      "city": "Unknown"
    },
    "browser": {
      "name": "Chrome",
      "version": "126.0.0.0"
    },
    "os": {
      "name": "Chrome OS",
      "version": "14541.0.0"
    },
    "device": {
      "vendor": "Unknown",
      "model": "Unknown",
      "type": "Unknown"
    },
    "visitedAt": "2025-02-18T17:44:47.274Z"
  },
  {
    "ip": "::1",
    "location": {
      "country": "Unknown",
      "region": "Unknown",
      "city": "Unknown"
    },
    "browser": {
      "name": "Chrome",
      "version": "126.0.0.0"
    },
    "os": {
      "name": "Chrome OS",
      "version": "14541.0.0"
    },
    "device": {
      "vendor": "Unknown",
      "model": "Unknown",
      "type": "Unknown"
    },
    "visitedAt": "2025-02-18T17:52:56.784Z"
  },
  {
    "ip": "::1",
    "location": {
      "country": "Unknown",
      "region": "Unknown",
      "city": "Unknown"
    },
    "browser": {
      "name": "Chrome",
      "version": "126.0.0.0"
    },
    "os": {
      "name": "Chrome OS",
      "version": "14541.0.0"
    },
    "device": {
      "vendor": "Unknown",
      "model": "Unknown",
      "type": "Unknown"
    },
    "visitedAt": "2025-02-18T17:53:58.897Z"
  },
  {
    "ip": "::1",
    "location": {
      "country": "Unknown",
      "region": "Unknown",
      "city": "Unknown"
    },
    "browser": {
      "name": "Chrome",
      "version": "126.0.0.0"
    },
    "os": {
      "name": "Chrome OS",
      "version": "14541.0.0"
    },
    "device": {
      "vendor": "Unknown",
      "model": "Unknown",
      "type": "Unknown"
    },
    "visitedAt": "2025-02-18T17:54:07.962Z"
  },
  {
    "ip": "::1",
    "location": {
      "country": "Unknown",
      "region": "Unknown",
      "city": "Unknown"
    },
    "browser": {
      "name": "Chrome",
      "version": "126.0.0.0"
    },
    "os": {
      "name": "Chrome OS",
      "version": "14541.0.0"
    },
    "device": {
      "vendor": "Unknown",
      "model": "Unknown",
      "type": "Unknown"
    },
    "visitedAt": "2025-02-18T17:57:44.864Z"
  },
  {
    "ip": "::1",
    "location": {
      "country": "Unknown",
      "region": "Unknown",
      "city": "Unknown"
    },
    "browser": {
      "name": "Chrome",
      "version": "126.0.0.0"
    },
    "os": {
      "name": "Chrome OS",
      "version": "14541.0.0"
    },
    "device": {
      "vendor": "Unknown",
      "model": "Unknown",
      "type": "Unknown"
    },
    "visitedAt": "2025-02-19T07:00:12.204Z"
  },
  {
    "ip": "::1",
    "location": {
      "country": "Unknown",
      "region": "Unknown",
      "city": "Unknown"
    },
    "browser": {
      "name": "Chrome",
      "version": "126.0.0.0"
    },
    "os": {
      "name": "Chrome OS",
      "version": "14541.0.0"
    },
    "device": {
      "vendor": "Unknown",
      "model": "Unknown",
      "type": "Unknown"
    },
    "visitedAt": "2025-02-19T07:02:17.940Z"
  },
  {
    "ip": "::1",
    "location": {
      "country": "Unknown",
      "region": "Unknown",
      "city": "Unknown"
    },
    "browser": {
      "name": "Chrome",
      "version": "126.0.0.0"
    },
    "os": {
      "name": "Chrome OS",
      "version": "14541.0.0"
    },
    "device": {
      "vendor": "Unknown",
      "model": "Unknown",
      "type": "Unknown"
    },
    "visitedAt": "2025-02-19T07:02:21.540Z"
  },
  {
    "ip": "::1",
    "location": {
      "country": "Unknown",
      "region": "Unknown",
      "city": "Unknown"
    },
    "browser": {
      "name": "Chrome",
      "version": "126.0.0.0"
    },
    "os": {
      "name": "Chrome OS",
      "version": "14541.0.0"
    },
    "device": {
      "vendor": "Unknown",
      "model": "Unknown",
      "type": "Unknown"
    },
    "visitedAt": "2025-02-19T07:31:32.026Z"
  },
  {
    "ip": "::1",
    "location": {
      "country": "Unknown",
      "region": "Unknown",
      "city": "Unknown"
    },
    "browser": {
      "name": "Chrome",
      "version": "126.0.0.0"
    },
    "os": {
      "name": "Chrome OS",
      "version": "14541.0.0"
    },
    "device": {
      "vendor": "Unknown",
      "model": "Unknown",
      "type": "Unknown"
    },
    "visitedAt": "2025-02-19T07:31:40.524Z"
  },
  {
    "ip": "::1",
    "location": {
      "country": "Unknown",
      "region": "Unknown",
      "city": "Unknown"
    },
    "browser": {
      "name": "Chrome",
      "version": "126.0.0.0"
    },
    "os": {
      "name": "Chrome OS",
      "version": "14541.0.0"
    },
    "device": {
      "vendor": "Unknown",
      "model": "Unknown",
      "type": "Unknown"
    },
    "visitedAt": "2025-02-19T07:31:53.312Z"
  },
  {
    "ip": "::1",
    "location": {
      "country": "Unknown",
      "region": "Unknown",
      "city": "Unknown"
    },
    "browser": {
      "name": "Chrome",
      "version": "126.0.0.0"
    },
    "os": {
      "name": "Chrome OS",
      "version": "14541.0.0"
    },
    "device": {
      "vendor": "Unknown",
      "model": "Unknown",
      "type": "Unknown"
    },
    "visitedAt": "2025-02-19T07:33:07.945Z"
  },
  {
    "ip": "::1",
    "location": {
      "country": "Unknown",
      "region": "Unknown",
      "city": "Unknown"
    },
    "browser": {
      "name": "Chrome",
      "version": "126.0.0.0"
    },
    "os": {
      "name": "Chrome OS",
      "version": "14541.0.0"
    },
    "device": {
      "vendor": "Unknown",
      "model": "Unknown",
      "type": "Unknown"
    },
    "visitedAt": "2025-02-19T07:33:12.629Z"
  },
  {
    "ip": "::1",
    "location": {
      "country": "Unknown",
      "region": "Unknown",
      "city": "Unknown"
    },
    "browser": {
      "name": "Chrome",
      "version": "126.0.0.0"
    },
    "os": {
      "name": "Chrome OS",
      "version": "14541.0.0"
    },
    "device": {
      "vendor": "Unknown",
      "model": "Unknown",
      "type": "Unknown"
    },
    "visitedAt": "2025-02-19T08:05:55.627Z"
  },
  {
    "ip": "::1",
    "location": {
      "country": "Unknown",
      "region": "Unknown",
      "city": "Unknown"
    },
    "browser": {
      "name": "Chrome",
      "version": "126.0.0.0"
    },
    "os": {
      "name": "Chrome OS",
      "version": "14541.0.0"
    },
    "device": {
      "vendor": "Unknown",
      "model": "Unknown",
      "type": "Unknown"
    },
    "visitedAt": "2025-02-19T08:05:57.587Z"
  },
  {
    "ip": "::1",
    "location": {
      "country": "Unknown",
      "region": "Unknown",
      "city": "Unknown"
    },
    "browser": {
      "name": "Chrome",
      "version": "126.0.0.0"
    },
    "os": {
      "name": "Chrome OS",
      "version": "14541.0.0"
    },
    "device": {
      "vendor": "Unknown",
      "model": "Unknown",
      "type": "Unknown"
    },
    "visitedAt": "2025-02-19T08:06:06.882Z"
  },
  {
    "ip": "::1",
    "location": {
      "country": "Unknown",
      "region": "Unknown",
      "city": "Unknown"
    },
    "browser": {
      "name": "Chrome",
      "version": "126.0.0.0"
    },
    "os": {
      "name": "Chrome OS",
      "version": "14541.0.0"
    },
    "device": {
      "vendor": "Unknown",
      "model": "Unknown",
      "type": "Unknown"
    },
    "visitedAt": "2025-02-19T08:06:08.100Z"
  },
  {
    "ip": "::1",
    "location": {
      "country": "Unknown",
      "region": "Unknown",
      "city": "Unknown"
    },
    "browser": {
      "name": "Chrome",
      "version": "126.0.0.0"
    },
    "os": {
      "name": "Chrome OS",
      "version": "14541.0.0"
    },
    "device": {
      "vendor": "Unknown",
      "model": "Unknown",
      "type": "Unknown"
    },
    "visitedAt": "2025-02-19T08:06:11.070Z"
  },
  {
    "ip": "::1",
    "location": {
      "country": "Unknown",
      "region": "Unknown",
      "city": "Unknown"
    },
    "browser": {
      "name": "Chrome",
      "version": "126.0.0.0"
    },
    "os": {
      "name": "Chrome OS",
      "version": "14541.0.0"
    },
    "device": {
      "vendor": "Unknown",
      "model": "Unknown",
      "type": "Unknown"
    },
    "visitedAt": "2025-02-19T08:06:27.704Z"
  },
  {
    "ip": "::1",
    "location": {
      "country": "Unknown",
      "region": "Unknown",
      "city": "Unknown"
    },
    "browser": {
      "name": "Chrome",
      "version": "126.0.0.0"
    },
    "os": {
      "name": "Chrome OS",
      "version": "14541.0.0"
    },
    "device": {
      "vendor": "Unknown",
      "model": "Unknown",
      "type": "Unknown"
    },
    "visitedAt": "2025-02-19T08:06:50.667Z"
  },
  {
    "ip": "::1",
    "location": {
      "country": "Unknown",
      "region": "Unknown",
      "city": "Unknown"
    },
    "browser": {
      "name": "Chrome",
      "version": "126.0.0.0"
    },
    "os": {
      "name": "Chrome OS",
      "version": "14541.0.0"
    },
    "device": {
      "vendor": "Unknown",
      "model": "Unknown",
      "type": "Unknown"
    },
    "visitedAt": "2025-02-19T08:07:11.628Z"
  },
  {
    "ip": "::1",
    "location": {
      "country": "Unknown",
      "region": "Unknown",
      "city": "Unknown"
    },
    "browser": {
      "name": "Chrome",
      "version": "126.0.0.0"
    },
    "os": {
      "name": "Chrome OS",
      "version": "14541.0.0"
    },
    "device": {
      "vendor": "Unknown",
      "model": "Unknown",
      "type": "Unknown"
    },
    "visitedAt": "2025-02-19T08:07:15.460Z"
  },
  {
    "ip": "::1",
    "location": {
      "country": "Unknown",
      "region": "Unknown",
      "city": "Unknown"
    },
    "browser": {
      "name": "Chrome",
      "version": "126.0.0.0"
    },
    "os": {
      "name": "Chrome OS",
      "version": "14541.0.0"
    },
    "device": {
      "vendor": "Unknown",
      "model": "Unknown",
      "type": "Unknown"
    },
    "visitedAt": "2025-02-19T08:07:18.321Z"
  },
  {
    "ip": "::1",
    "location": {
      "country": "Unknown",
      "region": "Unknown",
      "city": "Unknown"
    },
    "browser": {
      "name": "Chrome",
      "version": "126.0.0.0"
    },
    "os": {
      "name": "Chrome OS",
      "version": "14541.0.0"
    },
    "device": {
      "vendor": "Unknown",
      "model": "Unknown",
      "type": "Unknown"
    },
    "visitedAt": "2025-02-19T08:07:38.456Z"
  },
  {
    "ip": "::1",
    "location": {
      "country": "Unknown",
      "region": "Unknown",
      "city": "Unknown"
    },
    "browser": {
      "name": "Chrome",
      "version": "126.0.0.0"
    },
    "os": {
      "name": "Chrome OS",
      "version": "14541.0.0"
    },
    "device": {
      "vendor": "Unknown",
      "model": "Unknown",
      "type": "Unknown"
    },
    "visitedAt": "2025-02-19T08:07:52.018Z"
  },
  {
    "ip": "::1",
    "location": {
      "country": "Unknown",
      "region": "Unknown",
      "city": "Unknown"
    },
    "browser": {
      "name": "Chrome",
      "version": "126.0.0.0"
    },
    "os": {
      "name": "Chrome OS",
      "version": "14541.0.0"
    },
    "device": {
      "vendor": "Unknown",
      "model": "Unknown",
      "type": "Unknown"
    },
    "visitedAt": "2025-02-19T08:08:12.918Z"
  },
  {
    "ip": "::1",
    "location": {
      "country": "Unknown",
      "region": "Unknown",
      "city": "Unknown"
    },
    "browser": {
      "name": "Chrome",
      "version": "126.0.0.0"
    },
    "os": {
      "name": "Chrome OS",
      "version": "14541.0.0"
    },
    "device": {
      "vendor": "Unknown",
      "model": "Unknown",
      "type": "Unknown"
    },
    "visitedAt": "2025-02-19T08:08:23.506Z"
  },
  {
    "ip": "::1",
    "location": {
      "country": "Unknown",
      "region": "Unknown",
      "city": "Unknown"
    },
    "browser": {
      "name": "Chrome",
      "version": "126.0.0.0"
    },
    "os": {
      "name": "Chrome OS",
      "version": "14541.0.0"
    },
    "device": {
      "vendor": "Unknown",
      "model": "Unknown",
      "type": "Unknown"
    },
    "visitedAt": "2025-02-19T08:08:53.065Z"
  },
  {
    "ip": "::1",
    "location": {
      "country": "Unknown",
      "region": "Unknown",
      "city": "Unknown"
    },
    "browser": {
      "name": "Chrome",
      "version": "126.0.0.0"
    },
    "os": {
      "name": "Chrome OS",
      "version": "14541.0.0"
    },
    "device": {
      "vendor": "Unknown",
      "model": "Unknown",
      "type": "Unknown"
    },
    "visitedAt": "2025-02-19T08:08:59.903Z"
  },
  {
    "ip": "::1",
    "location": {
      "country": "Unknown",
      "region": "Unknown",
      "city": "Unknown"
    },
    "browser": {
      "name": "Chrome",
      "version": "126.0.0.0"
    },
    "os": {
      "name": "Chrome OS",
      "version": "14541.0.0"
    },
    "device": {
      "vendor": "Unknown",
      "model": "Unknown",
      "type": "Unknown"
    },
    "visitedAt": "2025-02-19T09:09:06.442Z"
  },
  {
    "ip": "::1",
    "location": {
      "country": "Unknown",
      "region": "Unknown",
      "city": "Unknown"
    },
    "browser": {
      "name": "Chrome",
      "version": "126.0.0.0"
    },
    "os": {
      "name": "Chrome OS",
      "version": "14541.0.0"
    },
    "device": {
      "vendor": "Unknown",
      "model": "Unknown",
      "type": "Unknown"
    },
    "visitedAt": "2025-02-19T09:12:56.522Z"
  },
  {
    "ip": "::1",
    "location": {
      "country": "Unknown",
      "region": "Unknown",
      "city": "Unknown"
    },
    "browser": {
      "name": "Chrome",
      "version": "126.0.0.0"
    },
    "os": {
      "name": "Chrome OS",
      "version": "14541.0.0"
    },
    "device": {
      "vendor": "Unknown",
      "model": "Unknown",
      "type": "Unknown"
    },
    "visitedAt": "2025-02-19T09:18:44.264Z"
  },
  {
    "ip": "::1",
    "location": {
      "country": "Unknown",
      "region": "Unknown",
      "city": "Unknown"
    },
    "browser": {
      "name": "Chrome",
      "version": "126.0.0.0"
    },
    "os": {
      "name": "Chrome OS",
      "version": "14541.0.0"
    },
    "device": {
      "vendor": "Unknown",
      "model": "Unknown",
      "type": "Unknown"
    },
    "visitedAt": "2025-02-19T09:19:05.266Z"
  },
  {
    "ip": "::1",
    "location": {
      "country": "Unknown",
      "region": "Unknown",
      "city": "Unknown"
    },
    "browser": {
      "name": "Chrome",
      "version": "126.0.0.0"
    },
    "os": {
      "name": "Chrome OS",
      "version": "14541.0.0"
    },
    "device": {
      "vendor": "Unknown",
      "model": "Unknown",
      "type": "Unknown"
    },
    "visitedAt": "2025-02-19T09:19:12.141Z"
  },
  {
    "ip": "::1",
    "location": {
      "country": "Unknown",
      "region": "Unknown",
      "city": "Unknown"
    },
    "browser": {
      "name": "Chrome",
      "version": "126.0.0.0"
    },
    "os": {
      "name": "Chrome OS",
      "version": "14541.0.0"
    },
    "device": {
      "vendor": "Unknown",
      "model": "Unknown",
      "type": "Unknown"
    },
    "visitedAt": "2025-02-19T09:21:45.307Z"
  },
  {
    "ip": "::1",
    "location": {
      "country": "Unknown",
      "region": "Unknown",
      "city": "Unknown"
    },
    "browser": {
      "name": "Chrome",
      "version": "126.0.0.0"
    },
    "os": {
      "name": "Chrome OS",
      "version": "14541.0.0"
    },
    "device": {
      "vendor": "Unknown",
      "model": "Unknown",
      "type": "Unknown"
    },
    "visitedAt": "2025-02-19T09:33:18.636Z"
  },
  {
    "ip": "::1",
    "location": {
      "country": "Unknown",
      "region": "Unknown",
      "city": "Unknown"
    },
    "browser": {
      "name": "Chrome",
      "version": "126.0.0.0"
    },
    "os": {
      "name": "Chrome OS",
      "version": "14541.0.0"
    },
    "device": {
      "vendor": "Unknown",
      "model": "Unknown",
      "type": "Unknown"
    },
    "visitedAt": "2025-02-19T09:35:14.724Z"
  },
  {
    "ip": "::1",
    "location": {
      "country": "Unknown",
      "region": "Unknown",
      "city": "Unknown"
    },
    "browser": {
      "name": "Chrome",
      "version": "126.0.0.0"
    },
    "os": {
      "name": "Chrome OS",
      "version": "14541.0.0"
    },
    "device": {
      "vendor": "Unknown",
      "model": "Unknown",
      "type": "Unknown"
    },
    "visitedAt": "2025-02-19T09:35:55.478Z"
  },
  {
    "ip": "::1",
    "location": {
      "country": "Unknown",
      "region": "Unknown",
      "city": "Unknown"
    },
    "browser": {
      "name": "Chrome",
      "version": "126.0.0.0"
    },
    "os": {
      "name": "Chrome OS",
      "version": "14541.0.0"
    },
    "device": {
      "vendor": "Unknown",
      "model": "Unknown",
      "type": "Unknown"
    },
    "visitedAt": "2025-02-19T09:38:20.428Z"
  },
  {
    "ip": "::1",
    "location": {
      "country": "Unknown",
      "region": "Unknown",
      "city": "Unknown"
    },
    "browser": {
      "name": "Chrome",
      "version": "126.0.0.0"
    },
    "os": {
      "name": "Chrome OS",
      "version": "14541.0.0"
    },
    "device": {
      "vendor": "Unknown",
      "model": "Unknown",
      "type": "Unknown"
    },
    "visitedAt": "2025-02-19T09:39:42.355Z"
  },
  {
    "ip": "::1",
    "location": {
      "country": "Unknown",
      "region": "Unknown",
      "city": "Unknown"
    },
    "browser": {
      "name": "Chrome",
      "version": "126.0.0.0"
    },
    "os": {
      "name": "Chrome OS",
      "version": "14541.0.0"
    },
    "device": {
      "vendor": "Unknown",
      "model": "Unknown",
      "type": "Unknown"
    },
    "visitedAt": "2025-02-19T09:40:39.848Z"
  },
  {
    "ip": "::1",
    "location": {
      "country": "Unknown",
      "region": "Unknown",
      "city": "Unknown"
    },
    "browser": {
      "name": "Chrome",
      "version": "126.0.0.0"
    },
    "os": {
      "name": "Chrome OS",
      "version": "14541.0.0"
    },
    "device": {
      "vendor": "Unknown",
      "model": "Unknown",
      "type": "Unknown"
    },
    "visitedAt": "2025-02-19T09:43:06.632Z"
  },
  {
    "ip": "::1",
    "location": {
      "country": "Unknown",
      "region": "Unknown",
      "city": "Unknown"
    },
    "browser": {
      "name": "Chrome",
      "version": "126.0.0.0"
    },
    "os": {
      "name": "Chrome OS",
      "version": "14541.0.0"
    },
    "device": {
      "vendor": "Unknown",
      "model": "Unknown",
      "type": "Unknown"
    },
    "visitedAt": "2025-02-19T09:46:39.344Z"
  },
  {
    "ip": "::1",
    "location": {
      "country": "Unknown",
      "region": "Unknown",
      "city": "Unknown"
    },
    "browser": {
      "name": "Chrome",
      "version": "126.0.0.0"
    },
    "os": {
      "name": "Chrome OS",
      "version": "14541.0.0"
    },
    "device": {
      "vendor": "Unknown",
      "model": "Unknown",
      "type": "Unknown"
    },
    "visitedAt": "2025-02-19T09:47:09.515Z"
  },
  {
    "ip": "::1",
    "location": {
      "country": "Unknown",
      "region": "Unknown",
      "city": "Unknown"
    },
    "browser": {
      "name": "Chrome",
      "version": "126.0.0.0"
    },
    "os": {
      "name": "Chrome OS",
      "version": "14541.0.0"
    },
    "device": {
      "vendor": "Unknown",
      "model": "Unknown",
      "type": "Unknown"
    },
    "visitedAt": "2025-02-19T09:49:05.354Z"
  },
  {
    "ip": "::1",
    "location": {
      "country": "Unknown",
      "region": "Unknown",
      "city": "Unknown"
    },
    "browser": {
      "name": "Chrome",
      "version": "126.0.0.0"
    },
    "os": {
      "name": "Chrome OS",
      "version": "14541.0.0"
    },
    "device": {
      "vendor": "Unknown",
      "model": "Unknown",
      "type": "Unknown"
    },
    "visitedAt": "2025-02-19T09:50:43.368Z"
  },
  {
    "ip": "::1",
    "location": {
      "country": "Unknown",
      "region": "Unknown",
      "city": "Unknown"
    },
    "browser": {
      "name": "Chrome",
      "version": "126.0.0.0"
    },
    "os": {
      "name": "Chrome OS",
      "version": "14541.0.0"
    },
    "device": {
      "vendor": "Unknown",
      "model": "Unknown",
      "type": "Unknown"
    },
    "visitedAt": "2025-02-19T09:55:14.868Z"
  },
  {
    "ip": "::1",
    "location": {
      "country": "Unknown",
      "region": "Unknown",
      "city": "Unknown"
    },
    "browser": {
      "name": "Chrome",
      "version": "126.0.0.0"
    },
    "os": {
      "name": "Chrome OS",
      "version": "14541.0.0"
    },
    "device": {
      "vendor": "Unknown",
      "model": "Unknown",
      "type": "Unknown"
    },
    "visitedAt": "2025-02-19T09:55:22.990Z"
  },
  {
    "ip": "::1",
    "location": {
      "country": "Unknown",
      "region": "Unknown",
      "city": "Unknown"
    },
    "browser": {
      "name": "Chrome",
      "version": "126.0.0.0"
    },
    "os": {
      "name": "Chrome OS",
      "version": "14541.0.0"
    },
    "device": {
      "vendor": "Unknown",
      "model": "Unknown",
      "type": "Unknown"
    },
    "visitedAt": "2025-02-19T09:55:27.070Z"
  },
  {
    "ip": "::1",
    "location": {
      "country": "Unknown",
      "region": "Unknown",
      "city": "Unknown"
    },
    "browser": {
      "name": "Chrome",
      "version": "126.0.0.0"
    },
    "os": {
      "name": "Chrome OS",
      "version": "14541.0.0"
    },
    "device": {
      "vendor": "Unknown",
      "model": "Unknown",
      "type": "Unknown"
    },
    "visitedAt": "2025-02-19T09:55:30.912Z"
  },
  {
    "ip": "::1",
    "location": {
      "country": "Unknown",
      "region": "Unknown",
      "city": "Unknown"
    },
    "browser": {
      "name": "Chrome",
      "version": "126.0.0.0"
    },
    "os": {
      "name": "Chrome OS",
      "version": "14541.0.0"
    },
    "device": {
      "vendor": "Unknown",
      "model": "Unknown",
      "type": "Unknown"
    },
    "visitedAt": "2025-02-19T09:55:35.063Z"
  },
  {
    "ip": "::1",
    "location": {
      "country": "Unknown",
      "region": "Unknown",
      "city": "Unknown"
    },
    "browser": {
      "name": "Chrome",
      "version": "126.0.0.0"
    },
    "os": {
      "name": "Chrome OS",
      "version": "14541.0.0"
    },
    "device": {
      "vendor": "Unknown",
      "model": "Unknown",
      "type": "Unknown"
    },
    "visitedAt": "2025-02-19T09:55:38.797Z"
  },
  {
    "ip": "::1",
    "location": {
      "country": "Unknown",
      "region": "Unknown",
      "city": "Unknown"
    },
    "browser": {
      "name": "Chrome",
      "version": "126.0.0.0"
    },
    "os": {
      "name": "Chrome OS",
      "version": "14541.0.0"
    },
    "device": {
      "vendor": "Unknown",
      "model": "Unknown",
      "type": "Unknown"
    },
    "visitedAt": "2025-02-19T09:56:18.835Z"
  },
  {
    "ip": "::1",
    "location": {
      "country": "Unknown",
      "region": "Unknown",
      "city": "Unknown"
    },
    "browser": {
      "name": "Chrome",
      "version": "126.0.0.0"
    },
    "os": {
      "name": "Chrome OS",
      "version": "14541.0.0"
    },
    "device": {
      "vendor": "Unknown",
      "model": "Unknown",
      "type": "Unknown"
    },
    "visitedAt": "2025-02-19T09:56:25.529Z"
  },
  {
    "ip": "::1",
    "location": {
      "country": "Unknown",
      "region": "Unknown",
      "city": "Unknown"
    },
    "browser": {
      "name": "Chrome",
      "version": "126.0.0.0"
    },
    "os": {
      "name": "Chrome OS",
      "version": "14541.0.0"
    },
    "device": {
      "vendor": "Unknown",
      "model": "Unknown",
      "type": "Unknown"
    },
    "visitedAt": "2025-02-19T09:57:53.804Z"
  },
  {
    "ip": "::1",
    "location": {
      "country": "Unknown",
      "region": "Unknown",
      "city": "Unknown"
    },
    "browser": {
      "name": "Chrome",
      "version": "126.0.0.0"
    },
    "os": {
      "name": "Chrome OS",
      "version": "14541.0.0"
    },
    "device": {
      "vendor": "Unknown",
      "model": "Unknown",
      "type": "Unknown"
    },
    "visitedAt": "2025-02-19T09:57:59.471Z"
  },
  {
    "ip": "::1",
    "location": {
      "country": "Unknown",
      "region": "Unknown",
      "city": "Unknown"
    },
    "browser": {
      "name": "Chrome",
      "version": "126.0.0.0"
    },
    "os": {
      "name": "Chrome OS",
      "version": "14541.0.0"
    },
    "device": {
      "vendor": "Unknown",
      "model": "Unknown",
      "type": "Unknown"
    },
    "visitedAt": "2025-02-19T09:58:07.367Z"
  },
  {
    "ip": "::1",
    "location": {
      "country": "Unknown",
      "region": "Unknown",
      "city": "Unknown"
    },
    "browser": {
      "name": "Chrome",
      "version": "126.0.0.0"
    },
    "os": {
      "name": "Chrome OS",
      "version": "14541.0.0"
    },
    "device": {
      "vendor": "Unknown",
      "model": "Unknown",
      "type": "Unknown"
    },
    "visitedAt": "2025-02-19T09:58:55.310Z"
  },
  {
    "ip": "::1",
    "location": {
      "country": "Unknown",
      "region": "Unknown",
      "city": "Unknown"
    },
    "browser": {
      "name": "Chrome",
      "version": "126.0.0.0"
    },
    "os": {
      "name": "Chrome OS",
      "version": "14541.0.0"
    },
    "device": {
      "vendor": "Unknown",
      "model": "Unknown",
      "type": "Unknown"
    },
    "visitedAt": "2025-02-19T09:58:59.980Z"
  },
  {
    "ip": "::1",
    "location": {
      "country": "Unknown",
      "region": "Unknown",
      "city": "Unknown"
    },
    "browser": {
      "name": "Chrome",
      "version": "126.0.0.0"
    },
    "os": {
      "name": "Chrome OS",
      "version": "14541.0.0"
    },
    "device": {
      "vendor": "Unknown",
      "model": "Unknown",
      "type": "Unknown"
    },
    "visitedAt": "2025-02-19T09:59:28.863Z"
  },
  {
    "ip": "::1",
    "location": {
      "country": "Unknown",
      "region": "Unknown",
      "city": "Unknown"
    },
    "browser": {
      "name": "Chrome",
      "version": "126.0.0.0"
    },
    "os": {
      "name": "Chrome OS",
      "version": "14541.0.0"
    },
    "device": {
      "vendor": "Unknown",
      "model": "Unknown",
      "type": "Unknown"
    },
    "visitedAt": "2025-02-19T09:59:39.989Z"
  },
  {
    "ip": "::1",
    "location": {
      "country": "Unknown",
      "region": "Unknown",
      "city": "Unknown"
    },
    "browser": {
      "name": "Chrome",
      "version": "126.0.0.0"
    },
    "os": {
      "name": "Chrome OS",
      "version": "14541.0.0"
    },
    "device": {
      "vendor": "Unknown",
      "model": "Unknown",
      "type": "Unknown"
    },
    "visitedAt": "2025-02-19T09:59:45.925Z"
  },
  {
    "ip": "::1",
    "location": {
      "country": "Unknown",
      "region": "Unknown",
      "city": "Unknown"
    },
    "browser": {
      "name": "Chrome",
      "version": "126.0.0.0"
    },
    "os": {
      "name": "Chrome OS",
      "version": "14541.0.0"
    },
    "device": {
      "vendor": "Unknown",
      "model": "Unknown",
      "type": "Unknown"
    },
    "visitedAt": "2025-02-19T09:59:54.725Z"
  },
  {
    "ip": "::1",
    "location": {
      "country": "Unknown",
      "region": "Unknown",
      "city": "Unknown"
    },
    "browser": {
      "name": "Chrome",
      "version": "126.0.0.0"
    },
    "os": {
      "name": "Chrome OS",
      "version": "14541.0.0"
    },
    "device": {
      "vendor": "Unknown",
      "model": "Unknown",
      "type": "Unknown"
    },
    "visitedAt": "2025-02-19T10:01:04.561Z"
  },
  {
    "ip": "::1",
    "location": {
      "country": "Unknown",
      "region": "Unknown",
      "city": "Unknown"
    },
    "browser": {
      "name": "Chrome",
      "version": "126.0.0.0"
    },
    "os": {
      "name": "Chrome OS",
      "version": "14541.0.0"
    },
    "device": {
      "vendor": "Unknown",
      "model": "Unknown",
      "type": "Unknown"
    },
    "visitedAt": "2025-02-19T10:04:02.484Z"
  },
  {
    "ip": "::1",
    "location": {
      "country": "Unknown",
      "region": "Unknown",
      "city": "Unknown"
    },
    "browser": {
      "name": "Chrome",
      "version": "126.0.0.0"
    },
    "os": {
      "name": "Chrome OS",
      "version": "14541.0.0"
    },
    "device": {
      "vendor": "Unknown",
      "model": "Unknown",
      "type": "Unknown"
    },
    "visitedAt": "2025-02-19T10:06:09.728Z"
  },
  {
    "ip": "::1",
    "location": {
      "country": "Unknown",
      "region": "Unknown",
      "city": "Unknown"
    },
    "browser": {
      "name": "Chrome",
      "version": "126.0.0.0"
    },
    "os": {
      "name": "Chrome OS",
      "version": "14541.0.0"
    },
    "device": {
      "vendor": "Unknown",
      "model": "Unknown",
      "type": "Unknown"
    },
    "visitedAt": "2025-02-19T10:06:49.575Z"
  },
  {
    "ip": "::1",
    "location": {
      "country": "Unknown",
      "region": "Unknown",
      "city": "Unknown"
    },
    "browser": {
      "name": "Chrome",
      "version": "126.0.0.0"
    },
    "os": {
      "name": "Chrome OS",
      "version": "14541.0.0"
    },
    "device": {
      "vendor": "Unknown",
      "model": "Unknown",
      "type": "Unknown"
    },
    "visitedAt": "2025-02-19T10:08:21.199Z"
  },
  {
    "ip": "::1",
    "location": {
      "country": "Unknown",
      "region": "Unknown",
      "city": "Unknown"
    },
    "browser": {
      "name": "Chrome",
      "version": "126.0.0.0"
    },
    "os": {
      "name": "Chrome OS",
      "version": "14541.0.0"
    },
    "device": {
      "vendor": "Unknown",
      "model": "Unknown",
      "type": "Unknown"
    },
    "visitedAt": "2025-02-19T10:09:47.438Z"
  },
  {
    "ip": "::1",
    "location": {
      "country": "Unknown",
      "region": "Unknown",
      "city": "Unknown"
    },
    "browser": {
      "name": "Chrome",
      "version": "126.0.0.0"
    },
    "os": {
      "name": "Chrome OS",
      "version": "14541.0.0"
    },
    "device": {
      "vendor": "Unknown",
      "model": "Unknown",
      "type": "Unknown"
    },
    "visitedAt": "2025-02-19T10:13:43.404Z"
  },
  {
    "ip": "::1",
    "location": {
      "country": "Unknown",
      "region": "Unknown",
      "city": "Unknown"
    },
    "browser": {
      "name": "Chrome",
      "version": "126.0.0.0"
    },
    "os": {
      "name": "Chrome OS",
      "version": "14541.0.0"
    },
    "device": {
      "vendor": "Unknown",
      "model": "Unknown",
      "type": "Unknown"
    },
    "visitedAt": "2025-02-19T10:14:29.282Z"
  },
  {
    "ip": "::1",
    "location": {
      "country": "Unknown",
      "region": "Unknown",
      "city": "Unknown"
    },
    "browser": {
      "name": "Chrome",
      "version": "126.0.0.0"
    },
    "os": {
      "name": "Chrome OS",
      "version": "14541.0.0"
    },
    "device": {
      "vendor": "Unknown",
      "model": "Unknown",
      "type": "Unknown"
    },
    "visitedAt": "2025-02-19T10:15:43.284Z"
  },
  {
    "ip": "::1",
    "location": {
      "country": "Unknown",
      "region": "Unknown",
      "city": "Unknown"
    },
    "browser": {
      "name": "Chrome",
      "version": "126.0.0.0"
    },
    "os": {
      "name": "Chrome OS",
      "version": "14541.0.0"
    },
    "device": {
      "vendor": "Unknown",
      "model": "Unknown",
      "type": "Unknown"
    },
    "visitedAt": "2025-02-19T10:16:46.974Z"
  },
  {
    "ip": "::1",
    "location": {
      "country": "Unknown",
      "region": "Unknown",
      "city": "Unknown"
    },
    "browser": {
      "name": "Chrome",
      "version": "126.0.0.0"
    },
    "os": {
      "name": "Chrome OS",
      "version": "14541.0.0"
    },
    "device": {
      "vendor": "Unknown",
      "model": "Unknown",
      "type": "Unknown"
    },
    "visitedAt": "2025-02-19T10:18:34.311Z"
  },
  {
    "ip": "::1",
    "location": {
      "country": "Unknown",
      "region": "Unknown",
      "city": "Unknown"
    },
    "browser": {
      "name": "Chrome",
      "version": "126.0.0.0"
    },
    "os": {
      "name": "Chrome OS",
      "version": "14541.0.0"
    },
    "device": {
      "vendor": "Unknown",
      "model": "Unknown",
      "type": "Unknown"
    },
    "visitedAt": "2025-02-19T10:18:50.244Z"
  },
  {
    "ip": "::1",
    "location": {
      "country": "Unknown",
      "region": "Unknown",
      "city": "Unknown"
    },
    "browser": {
      "name": "Chrome",
      "version": "126.0.0.0"
    },
    "os": {
      "name": "Chrome OS",
      "version": "14541.0.0"
    },
    "device": {
      "vendor": "Unknown",
      "model": "Unknown",
      "type": "Unknown"
    },
    "visitedAt": "2025-02-19T10:19:19.609Z"
  },
  {
    "ip": "::1",
    "location": {
      "country": "Unknown",
      "region": "Unknown",
      "city": "Unknown"
    },
    "browser": {
      "name": "Chrome",
      "version": "126.0.0.0"
    },
    "os": {
      "name": "Chrome OS",
      "version": "14541.0.0"
    },
    "device": {
      "vendor": "Unknown",
      "model": "Unknown",
      "type": "Unknown"
    },
    "visitedAt": "2025-02-19T10:19:20.096Z"
  },
  {
    "ip": "::1",
    "location": {
      "country": "Unknown",
      "region": "Unknown",
      "city": "Unknown"
    },
    "browser": {
      "name": "Chrome",
      "version": "126.0.0.0"
    },
    "os": {
      "name": "Chrome OS",
      "version": "14541.0.0"
    },
    "device": {
      "vendor": "Unknown",
      "model": "Unknown",
      "type": "Unknown"
    },
    "visitedAt": "2025-02-19T10:19:22.118Z"
  }
]